[{"name":"MissFit","type":"POOL","content":["SAUNA","PERSONAL"],"status":false,"location":{"longitude":45.23,"latitude":19.83,"address":{"street":"Puskinova","number":"2","city":"Novi Sad","postalCode":21000}},"logo":"missfit.png","averageGrade":2.2,"startWorkingHour":"08:00","endWorkingHour":"22:00","deleted":false},{"name":"FitZone","type":"GYM","content":["SAUNA","PERSONAL"],"status":false,"location":{"longitude":15.0,"latitude":15.0,"address":{"street":"Puskinova","number":"2","city":"Beograd","postalCode":21000}},"logo":"missfit.png","averageGrade":3.5,"startWorkingHour":"08:00","endWorkingHour":"22:00","deleted":false},{"name":"RoyalGym","type":"GYM","content":["SAUNA","PERSONAL"],"status":false,"location":{"longitude":15.0,"latitude":15.0,"address":{"street":"Puskinova","number":"2","city":"Nis","postalCode":21000}},"logo":"missfit.png","averageGrade":3.8,"startWorkingHour":"08:00","endWorkingHour":"22:00","deleted":false},{"name":"BestFit","type":"GYM","content":null,"status":false,"location":{"longitude":0.0,"latitude":0.0,"address":{"street":"Bulevar Oslobodjenja","number":"37","city":"Novi Sad","postalCode":21000}},"logo":"logo.jpg","averageGrade":0.0,"startWorkingHour":null,"endWorkingHour":null,"deleted":false},{"name":"Aquana","type":"POOL","content":null,"status":false,"location":{"longitude":0.0,"latitude":0.0,"address":{"street":"Stepe Stepanovica","number":"5","city":"Banjaluka","postalCode":78000}},"logo":"logo.jpg","averageGrade":0.0,"startWorkingHour":null,"endWorkingHour":null,"deleted":false},{"name":"sportskiObjekat","type":"DANCE_STUDIO","content":null,"status":false,"location":{"longitude":0.0,"latitude":0.0,"address":{"street":"sadfa","number":"asdf","city":"asdf","postalCode":0}},"logo":"adsf","averageGrade":0.0,"startWorkingHour":null,"endWorkingHour":null,"deleted":false},{"name":"FitSoba","type":"GYM","content":null,"status":false,"location":{"longitude":0.0,"latitude":0.0,"address":{"street":"","number":"","city":"","postalCode":0}},"logo":"","averageGrade":0.0,"startWorkingHour":null,"endWorkingHour":null,"deleted":true}]